{
  "schemaVersion": 1,
  "generatedFrom": "data/research/restaurants.json",
  "researchGeneratedAtUtc": "2026-07-19T23:20:00Z",
  "target": {
    "name": "Places Telefonplan - Coworking",
    "address": "Tellusgången 2, 126 26 Hägersten, Sweden",
    "coordinates": {
      "latitude": 59.29927,
      "longitude": 17.994293,
      "crs": "EPSG:4326"
    },
    "addressEvidenceUrl": "https://www.joinplaces.co/en/kontor/telefonplan",
    "coordinateEvidenceUrl": "https://www.hitta.se/stockholms%2Bl%C3%A4n/h%C3%A4gersten/tellusg%C3%A5ngen%2B2/omr%C3%A5de/1011617436"
  },
  "restaurants": [
    {
      "id": "d678a1b3-fed5-5504-a975-dd9e8289334d",
      "slug": "addfood-telefonplan",
      "name": "Addfood / Tellus Restaurang",
      "address": "Dialoggatan 11, 126 37 Hägersten",
      "latitude": 59.2991966,
      "longitude": 17.9924373,
      "distanceMeters": 106,
      "websiteUrl": "https://www.addfood.se/home/",
      "menuSourceUrl": "https://www.addfood.se/home/lunchmeny/",
      "menuSourceType": "html",
      "enabled": true,
      "adapter": "addfood-weekly-html"
    },
    {
      "id": "b74d923b-d62f-52bb-8647-ce7a90a4cbfc",
      "slug": "krubb-telefonplan",
      "name": "Krubb Telefonplan",
      "address": "Telefonvägen 22A, 126 26 Hägersten",
      "latitude": 59.298455,
      "longitude": 17.9953077,
      "distanceMeters": 107,
      "websiteUrl": "https://krubbburgers.se/",
      "menuSourceUrl": "https://krubbburgers.se/",
      "menuSourceType": "html",
      "enabled": true,
      "adapter": "manual-review"
    },
    {
      "id": "1c7b6e05-ab6d-5a53-a3b2-d363900e1c5a",
      "slug": "landet-telefonplan",
      "name": "Restaurang Landet",
      "address": "LM Ericssons väg 27, 126 37 Hägersten",
      "latitude": 59.2991679,
      "longitude": 17.9962667,
      "distanceMeters": 113,
      "websiteUrl": "https://www.landet.nu/",
      "menuSourceUrl": "https://www.landet.nu/lunch/",
      "menuSourceType": "html",
      "enabled": true,
      "adapter": "landet-daily-html"
    },
    {
      "id": "4faf745d-a749-5cf1-9490-eea6ced7cc9a",
      "slug": "tokai-sushi-telefonplan",
      "name": "Tokai Sushi Telefonplan",
      "address": "Tellusgången 27, 126 37 Hägersten",
      "latitude": 59.2987356,
      "longitude": 17.990757,
      "distanceMeters": 209,
      "websiteUrl": "https://www.tokaisushi.se/",
      "menuSourceUrl": "https://www.tokaisushi.se/meny",
      "menuSourceType": "html",
      "enabled": true,
      "adapter": "manual-review"
    },
    {
      "id": "d76f7946-a1c7-5ccd-af97-94d8ddfa2bec",
      "slug": "thai-wok-orkide",
      "name": "Thai Wok Orkidé",
      "address": "Bäckvägen 80, 126 47 Hägersten",
      "latitude": 59.3022428,
      "longitude": 17.9935758,
      "distanceMeters": 333,
      "websiteUrl": "https://thaiwokorkide.nu/",
      "menuSourceUrl": "https://thaiwokorkide.nu/",
      "menuSourceType": "html",
      "enabled": true,
      "adapter": "manual-review"
    },
    {
      "id": "92f517e4-b43a-51d1-8321-bc07821e318f",
      "slug": "masahiro",
      "name": "Sushibar Masahiro",
      "address": "Tellusborgsvägen 73A, 126 29 Hägersten",
      "latitude": 59.2982973,
      "longitude": 18.0026717,
      "distanceMeters": 488,
      "websiteUrl": "https://www.sushibarmasahiro.com/",
      "menuSourceUrl": "https://www.sushibarmasahiro.com/",
      "menuSourceType": "manual",
      "enabled": true,
      "adapter": "manual-review"
    },
    {
      "id": "dd517f66-122e-5331-9d67-7a32cee57aad",
      "slug": "nygammalt",
      "name": "Restaurang Nygammalt",
      "address": "Midsommarvägen 80, 126 35 Hägersten",
      "latitude": 59.2998782,
      "longitude": 18.0046563,
      "distanceMeters": 592,
      "websiteUrl": "https://www.restaurangnygammalt.se/",
      "menuSourceUrl": "https://www.restaurangnygammalt.se/index.php/lunchmeny/",
      "menuSourceType": "html",
      "enabled": true,
      "adapter": "manual-review"
    },
    {
      "id": "42981a22-7b20-54cc-9452-e71297ee73f2",
      "slug": "indian-lotus",
      "name": "Indian Lotus",
      "address": "Riksdalervägen 9, 129 32 Hägersten",
      "latitude": 59.2974935,
      "longitude": 17.9843719,
      "distanceMeters": 597,
      "websiteUrl": "https://indianlotus.se/",
      "menuSourceUrl": "https://indianlotus.se/",
      "menuSourceType": "html",
      "enabled": true,
      "adapter": "manual-review"
    },
    {
      "id": "129fe26b-f5e2-5702-b570-508455ed69b6",
      "slug": "the-meeting",
      "name": "The Meeting Restaurant",
      "address": "Hägerstensvägen 175, 126 53 Hägersten",
      "latitude": 59.3050438,
      "longitude": 17.9921902,
      "distanceMeters": 653,
      "websiteUrl": "https://themeetingrestaurant.se/",
      "menuSourceUrl": "https://themeetingrestaurant.se/",
      "menuSourceType": "html",
      "enabled": true,
      "adapter": "manual-review"
    },
    {
      "id": "e3172c1d-df17-545f-b097-f50e2e906d78",
      "slug": "pita-i-parken",
      "name": "Pita i Parken Midsommarkransen",
      "address": "Svandammsvägen 41, 126 35 Hägersten",
      "latitude": 59.301094,
      "longitude": 18.0069063,
      "distanceMeters": 744,
      "websiteUrl": "https://www.pitaiparken.se/",
      "menuSourceUrl": "https://www.pitaiparken.se/",
      "menuSourceType": "html",
      "enabled": true,
      "adapter": "manual-review"
    },
    {
      "id": "97752077-232a-5375-82d3-cecd2be6eba7",
      "slug": "tellus-pizza",
      "name": "Tellus Pizza",
      "address": "Vattenledningsvägen 57, 126 33 Hägersten",
      "latitude": 59.3020127,
      "longitude": 18.0082047,
      "distanceMeters": 847,
      "websiteUrl": "https://www.telluspizza.com/",
      "menuSourceUrl": "https://www.telluspizza.com/menu/",
      "menuSourceType": "html",
      "enabled": true,
      "adapter": "manual-review"
    },
    {
      "id": "dca5d776-8fd2-5967-afef-2822c765a91e",
      "slug": "cafe-elektra",
      "name": "Café Elektra",
      "address": "Elektravägen 33, 126 30 Hägersten",
      "latitude": 59.2943422,
      "longitude": 18.0090461,
      "distanceMeters": 1001,
      "websiteUrl": "https://elektracafe.n.nu/",
      "menuSourceUrl": "https://elektracafe.n.nu/",
      "menuSourceType": "manual",
      "enabled": true,
      "adapter": "manual-review"
    },
    {
      "id": "dd7a8f0b-a447-5e90-8455-ce441afe22e6",
      "slug": "spiskroken",
      "name": "Restaurang Spiskroken",
      "address": "Västbergavägen 25, 126 30 Hägersten",
      "latitude": 59.2928504,
      "longitude": 18.0082976,
      "distanceMeters": 1069,
      "websiteUrl": "https://spiskroken.kvartersmenyn.se/",
      "menuSourceUrl": "https://spiskroken.kvartersmenyn.se/",
      "menuSourceType": "manual",
      "enabled": true,
      "adapter": "manual-review"
    },
    {
      "id": "d6b4c2ba-0c71-508b-820c-cdcb9e8000e6",
      "slug": "wkb-vastberga",
      "name": "WKB Västberga",
      "address": "Västberga Allé 36A, 2 tr, 126 30 Hägersten",
      "latitude": 59.293817,
      "longitude": 18.0111796,
      "distanceMeters": 1134,
      "websiteUrl": "https://wkb.se/",
      "menuSourceUrl": "https://wkb.se/?page_id=83",
      "menuSourceType": "html",
      "enabled": true,
      "adapter": "manual-review"
    },
    {
      "id": "d11d6d66-a782-5d13-a1d9-4352ff6630f2",
      "slug": "the-swan",
      "name": "The Swan",
      "address": "Nioörtsvägen 36, 126 32 Hägersten",
      "latitude": 59.3006861,
      "longitude": 18.014473,
      "distanceMeters": 1156,
      "websiteUrl": "https://www.theswan.se/",
      "menuSourceUrl": "https://www.theswan.se/",
      "menuSourceType": "html",
      "enabled": true,
      "adapter": "manual-review"
    },
    {
      "id": "1fe93ef3-578d-5862-9500-3c5b84767e3b",
      "slug": "restaurant-kransen",
      "name": "Restaurant Kransen",
      "address": "Tegelbruksvägen 4, 126 32 Hägersten",
      "latitude": 59.3022631,
      "longitude": 18.0148264,
      "distanceMeters": 1212,
      "websiteUrl": "https://www.restaurantkransen.se/",
      "menuSourceUrl": "https://www.restaurantkransen.se/",
      "menuSourceType": "html",
      "enabled": false,
      "adapter": "manual-review"
    },
    {
      "id": "25dbf36b-fdbb-561b-9571-4ce105076994",
      "slug": "vintervikens-tradgardskafe",
      "name": "Vintervikens Trädgårdskafé",
      "address": "Vinterviksvägen 30, 117 65 Stockholm",
      "latitude": 59.3112368,
      "longitude": 17.9990416,
      "distanceMeters": 1358,
      "websiteUrl": "https://vinterviken.com/",
      "menuSourceUrl": "https://vinterviken.com/kafe/",
      "menuSourceType": "html",
      "enabled": true,
      "adapter": "manual-review"
    },
    {
      "id": "8ddcba1f-fb9b-55b9-865f-96da2625d384",
      "slug": "vastertorps-hjarta",
      "name": "Västertorps Hjärta",
      "address": "Störtloppsvägen 30, 129 47 Hägersten",
      "latitude": 59.2936722,
      "longitude": 17.9672747,
      "distanceMeters": 1655,
      "websiteUrl": "https://vastertorpshjarta.se/",
      "menuSourceUrl": "https://vastertorpshjarta.se/",
      "menuSourceType": "html",
      "enabled": true,
      "adapter": "manual-review"
    },
    {
      "id": "a79f2194-ec5f-5b80-ba5d-fc8e73b50a0f",
      "slug": "bastard-burgers-liljeholmen",
      "name": "Bastard Burgers Liljeholmen",
      "address": "Liljeholmstorget 5, 117 63 Stockholm",
      "latitude": 59.309643,
      "longitude": 18.0224993,
      "distanceMeters": 1973,
      "websiteUrl": "https://bastardburgers.com/se/restaurants/liljeholmen/",
      "menuSourceUrl": "https://bastardburgers.com/se/dagens-lunch/stockholm/",
      "menuSourceType": "html",
      "enabled": true,
      "adapter": "manual-review"
    }
  ]
}
